[
  {
    "id": "mandal-001",
    "name": "Lalbaugcha Raja",
    "est_year": 1934,
    "location": "Lalbaug, Parel, Mumbai",
    "lat": 18.9874,
    "lng": 72.8330,
    "contact_phone": "9876543210",
    "upi_id": "lalbaugcharaja@upi",
    "delivery_available": true,
    "verified": true,
    "description": "The most famous Ganesh mandal in Mumbai, known for its grand celebrations and magnificent idol.",
    "specialties": ["Traditional Modak", "Special Prasad", "Royal Ladoo"],
    "votes": 1247
  },
  {
    "id": "mandal-002",
    "name": "Mumbaicha Raja (Ganesh Galli)",
    "est_year": 1928,
    "location": "Ganesh Galli, Lalbaug, Mumbai",
    "lat": 18.9968,
    "lng": 72.8355,
    "contact_phone": "9123456780",
    "upi_id": "mumbaicharaja@upi",
    "delivery_available": false,
    "verified": true,
    "description": "One of the oldest mandals in Mumbai with rich cultural heritage.",
    "specialties": ["Coconut Ladoo", "Jaggery Modak"],
    "votes": 856
  },
  {
    "id": "mandal-003",
    "name": "G.S.B. Seva Mandal, King's Circle",
    "est_year": 1951,
    "location": "King's Circle, Sion, Mumbai",
    "lat": 19.0170,
    "lng": 72.8500,
    "contact_phone": "9000000000",
    "upi_id": "gsbseva@upi",
    "delivery_available": true,
    "verified": true,
    "description": "Known for its beautiful decorations and community service.",
    "specialties": ["Steamed Modak", "Til Ladoo", "Mango Modak"],
    "votes": 643
  },
  {
    "id": "mandal-004",
    "name": "Andhericha Raja",
    "est_year": 1966,
    "location": "Andheri West, Mumbai",
    "lat": 19.1197,
    "lng": 72.8468,
    "contact_phone": "9810000000",
    "upi_id": "andhericharaja@upi",
    "delivery_available": false,
    "verified": false,
    "description": "Popular mandal in the western suburbs known for its innovative themes.",
    "specialties": ["Chocolate Modak", "Dry Fruit Ladoo"],
    "votes": 492
  },
  {
    "id": "mandal-005",
    "name": "Khetwadi Ganraj",
    "est_year": 1959,
    "location": "Khetwadi, Girgaum, Mumbai",
    "lat": 18.9621,
    "lng": 72.8140,
    "contact_phone": "9820000000",
    "upi_id": "khetwadiganraj@upi",
    "delivery_available": false,
    "verified": false,
    "description": "Famous for its artistic pandal decorations and cultural programs.",
    "specialties": ["Traditional Modak", "Sesame Ladoo"],
    "votes": 378
  },
  {
    "id": "mandal-006",
    "name": "Chinchpokli Cha Chintamani",
    "est_year": 1920,
    "location": "Chinchpokli, Mumbai",
    "lat": 18.9881,
    "lng": 72.8331,
    "contact_phone": "9830000000",
    "upi_id": "chinchpoklichintamani@upi",
    "delivery_available": false,
    "verified": true,
    "description": "One of Mumbai's oldest mandals with traditional celebration style.",
    "specialties": ["Pure Ghee Modak", "Kheer Prasad"],
    "votes": 567
  },
  {
    "id": "mandal-007",
    "name": "Dongricha Raja",
    "est_year": 1940,
    "location": "Dongri, Mumbai",
    "lat": 18.9629,
    "lng": 72.8360,
    "contact_phone": "9840000000",
    "upi_id": "dongricha@upi",
    "delivery_available": true,
    "verified": false,
    "description": "Known for its peaceful atmosphere and traditional rituals.",
    "specialties": ["Coconut Modak", "Mishri Ladoo", "Peda"],
    "votes": 334
  },
  {
    "id": "mandal-008",
    "name": "Keshavji Naik Chawl Sarvajanik Ganeshotsav Mandal",
    "est_year": 1893,
    "location": "Girgaon, Mumbai",
    "lat": 18.9546,
    "lng": 72.8129,
    "contact_phone": "9850000000",
    "upi_id": "keshavjinaik@upi",
    "delivery_available": false,
    "verified": true,
    "description": "Mumbai's first public Ganesh celebration, steeped in history.",
    "specialties": ["Historic Modak Recipe", "Traditional Prasad"],
    "votes": 789
  },
  {
    "id": "mandal-009",
    "name": "Fortcha Icchapurti Raja (Fort Vibhag)",
    "est_year": 1947,
    "location": "Fort, Mumbai",
    "lat": 18.9388,
    "lng": 72.8355,
    "contact_phone": "9860000000",
    "upi_id": "fortcharaja@upi",
    "delivery_available": false,
    "verified": false,
    "description": "Located in the business district, known for office worker participation.",
    "specialties": ["Quick Prasad", "Mini Modak"],
    "votes": 245
  },
  {
    "id": "mandal-010",
    "name": "Parelcha Maharaja",
    "est_year": 1943,
    "location": "Parel, Mumbai",
    "lat": 18.9933,
    "lng": 72.8443,
    "contact_phone": "9870000001",
    "upi_id": "parelmaharaja@upi",
    "delivery_available": true,
    "verified": false,
    "description": "Mill area mandal with strong worker community involvement.",
    "specialties": ["Worker Special Modak", "Community Ladoo"],
    "votes": 423
  },
  {
    "id": "mandal-011",
    "name": "Sahyadri Krida Mandal",
    "est_year": 1976,
    "location": "Chembur, Mumbai",
    "lat": 19.0620,
    "lng": 72.9000,
    "contact_phone": "9880000000",
    "upi_id": "sahyadri@upi",
    "delivery_available": true,
    "verified": false,
    "description": "Sports club mandal known for youth participation and modern celebrations.",
    "specialties": ["Energy Modak", "Protein Ladoo", "Sports Special"],
    "votes": 312
  },
  {
    "id": "mandal-012",
    "name": "Kalachowkicha Mahaganpati",
    "est_year": 1920,
    "location": "Kalachowki, Mumbai",
    "lat": 18.9840,
    "lng": 72.8449,
    "contact_phone": "9890000000",
    "upi_id": "kalachowki@upi",
    "delivery_available": false,
    "verified": true,
    "description": "Historic mandal known for its spiritual atmosphere and traditional practices.",
    "specialties": ["Spiritual Prasad", "Traditional Modak", "Holy Water"],
    "votes": 598
  }
]